[
  {
    "name": "マリンピア日本海",
    "address": "新潟市中央区西船見町5932番地445",
    "comment": "館内、ミュージアムショップ、ドルフィンスタジアム",
    "latlng": {
      "lat": 37.92372210000001,
      "lng": 139.028113
    }
  },
  {
    "name": "マンガ・アニメ情報館",
    "address": "新潟市中央区八千代2丁目5番7号　万代シテイBP2 1階",
    "comment": "インフォメーション付近",
    "latlng": {
      "lat": 37.9163677,
      "lng": 139.0530698
    }
  },
  {
    "name": "マンガの家",
    "address": "新潟市中央区古町通6番町971番地7　GEO古町通6番町1・2階",
    "comment": "2階ギャラリーコーナー付近",
    "latlng": {
      "lat": 37.9206087,
      "lng": 139.0447452
    }
  },
  {
    "name": "安吾風の館",
    "address": "新潟市中央区西大畑町5927番地9",
    "comment": "館内",
    "latlng": {
      "lat": 37.926658,
      "lng": 139.0377204
    }
  },
  {
    "name": "新津美術館",
    "address": "新潟市秋葉区蒲ケ沢109番地1",
    "comment": "館内",
    "latlng": {
      "lat": 37.7624647,
      "lng": 139.112369
    }
  },
  {
    "name": "歴史博物館（みなとぴあ）",
    "address": "新潟市中央区柳島町2番地10",
    "comment": "エントランス、展示室付近",
    "latlng": {
      "lat": 37.9304856,
      "lng": 139.0581018
    }
  },
  {
    "name": "旧小澤家住宅",
    "address": "新潟市中央区上大川前通12番町2733番地",
    "comment": "館内",
    "latlng": {
      "lat": 37.929399,
      "lng": 139.0487868
    }
  },
  {
    "name": "新津鉄道資料館",
    "address": "新潟市秋葉区新津東町2丁目5番6号",
    "comment": "館内",
    "latlng": {
      "lat": 37.8019608,
      "lng": 139.1421232
    }
  },
  {
    "name": "旧斎藤家別邸",
    "address": "新潟市中央区西大畑町576番地",
    "comment": "主屋、庭園",
    "latlng": {
      "lat": 37.925897,
      "lng": 139.0402091
    }
  },
  {
    "name": "砂丘館",
    "address": "新潟市中央区西大畑町5218番地1",
    "comment": "館内",
    "latlng": {
      "lat": 37.9256831,
      "lng": 139.0364122
    }
  },
  {
    "name": "燕喜館",
    "address": "新潟市中央区一番堀通町1番地2　白山公園内",
    "comment": "館内",
    "latlng": {
      "lat": 37.9149787,
      "lng": 139.0378904
    }
  },
  {
    "name": "天寿園",
    "address": "新潟市中央区清五郎633番地8",
    "comment": "カフェ、多目的ホール、大広間、茶室",
    "latlng": {
      "lat": 37.8792944,
      "lng": 139.0539379
    }
  },
  {
    "name": "文化財センター",
    "address": "新潟市西区木場2748番地1",
    "comment": "エントランス付近",
    "latlng": {
      "lat": 37.8327524,
      "lng": 138.9844402
    }
  },
  {
    "name": "古津八幡山弥生の丘展示館",
    "address": "新潟市秋葉区蒲ケ沢264番地　花と遺跡のふるさと公園内（新津美術館脇）",
    "comment": "館内",
    "latlng": {
      "lat": 37.7629813,
      "lng": 139.1121964
    }
  },
  {
    "name": "いくとぴあ食花",
    "address": "新潟市中央区清五郎336番地",
    "comment": "キラキラマーケット、キラキラレストラン、情報館、花とみどりの展示館",
    "latlng": {
      "lat": 37.8799081,
      "lng": 139.048205
    }
  },
  {
    "name": "アグリパーク",
    "address": "新潟市南区東笠巻新田3044",
    "comment": "クラブハウス、レストラン、宿泊施設（チューリップ、さくら）",
    "latlng": {
      "lat": 37.8131568,
      "lng": 139.0340624
    }
  },
  {
    "name": "水の駅「ビュー福島潟」",
    "address": "新潟市北区前新田乙493番地",
    "comment": "館内",
    "latlng": {
      "lat": 37.9135636,
      "lng": 139.2402698
    }
  },
  {
    "name": "しろね大凧と歴史の館",
    "address": "新潟市南区上下諏訪木1770番地1",
    "comment": "館内",
    "latlng": {
      "lat": 37.7570692,
      "lng": 139.0228408
    }
  },
  {
    "name": "佐潟水鳥・湿地センター",
    "address": "新潟市西区赤塚5404番地1",
    "comment": "館内",
    "latlng": {
      "lat": 37.8190373,
      "lng": 138.8797292
    }
  },
  {
    "name": "BRTバス停（新潟駅前）",
    "address": "新潟市中央区花園1丁目1番1号付近",
    "comment": "バス停周辺",
    "latlng": {
      "lat": 37.9120851,
      "lng": 139.0615167
    }
  },
  {
    "name": "BRTバス停（万代シテイ）",
    "address": "新潟市中央区万代1丁目5番1号付近、万代4丁目4番27号付近",
    "comment": "バス停周辺",
    "latlng": {
      "lat": 37.91724540000001,
      "lng": 139.0562445
    }
  },
  {
    "name": "BRTバス停（本町）",
    "address": "新潟市中央区上大川前通6番町1178番地1付近、上大川前通7番町1173番地1付近",
    "comment": "バス停周辺",
    "latlng": {
      "lat": 37.9212559,
      "lng": 139.0475366
    }
  },
  {
    "name": "BRTバス停（古町）",
    "address": "新潟市中央区西堀通5番町866番地付近、古町通7番町949番地付近",
    "comment": "バス停周辺",
    "latlng": {
      "lat": 37.921753,
      "lng": 139.0431647
    }
  },
  {
    "name": "BRTバス停（市役所前）",
    "address": "新潟市中央区学校町通1番町602番地1付近",
    "comment": "バス停周辺",
    "latlng": {
      "lat": 37.9165285,
      "lng": 139.0364015
    }
  },
  {
    "name": "BRTバス停（白山駅前）",
    "address": "新潟市中央区白山浦2丁目647番地付近",
    "comment": "バス停周辺",
    "latlng": {
      "lat": 37.9123649,
      "lng": 139.0295466
    }
  },
  {
    "name": "BRTバス停（青山）",
    "address": "新潟市西区青山2丁目5番1号付近",
    "comment": "バス停周辺",
    "latlng": {
      "lat": 37.8962826,
      "lng": 139.0048827
    }
  },
  {
    "name": "新潟空港",
    "address": "新潟市東区松浜町3710番地",
    "comment": "空港ビル内",
    "latlng": {
      "lat": 37.9510723,
      "lng": 139.1126521
    }
  },
  {
    "name": "古町通6番町商店街アーケード（ふるまちモール6）",
    "address": "新潟市中央区古町通6番町",
    "comment": "アーケード内",
    "latlng": {
      "lat": 37.9207476,
      "lng": 139.0445535
    }
  },
  {
    "name": "朱鷺メッセ",
    "address": "新潟市中央区万代島6番1号",
    "comment": "2階エスプラナード・アトリウム",
    "latlng": {
      "lat": 37.9267945,
      "lng": 139.060713
    }
  },
  {
    "name": "北区役所",
    "address": "新潟市北区葛塚3197番地",
    "comment": "市民ロビー",
    "latlng": {
      "lat": 37.9166738,
      "lng": 139.2193077
    }
  },
  {
    "name": "東区役所",
    "address": "新潟市東区下木戸1丁目4番1号",
    "comment": "市民ロビー",
    "latlng": {
      "lat": 37.9248768,
      "lng": 139.0927772
    }
  },
  {
    "name": "中央区役所",
    "address": "新潟市中央区学校町通1番町602番地1",
    "comment": "市民ロビー",
    "latlng": {
      "lat": 37.9161285,
      "lng": 139.0364015
    }
  },
  {
    "name": "江南区役所",
    "address": "新潟市江南区泉町3丁目4番5号",
    "comment": "市民ロビー",
    "latlng": {
      "lat": 37.86766009999999,
      "lng": 139.0940134
    }
  },
  {
    "name": "秋葉区役所",
    "address": "新潟市秋葉区程島2009番地",
    "comment": "市民ロビー",
    "latlng": {
      "lat": 37.7880422,
      "lng": 139.1136649
    }
  },
  {
    "name": "南区役所",
    "address": "新潟市南区白根1235番地",
    "comment": "市民ロビー",
    "latlng": {
      "lat": 37.7656846,
      "lng": 139.0186772
    }
  },
  {
    "name": "西区役所",
    "address": "新潟市西区寺尾東3丁目14番41号",
    "comment": "市民ロビー",
    "latlng": {
      "lat": 37.8742116,
      "lng": 138.9719429
    }
  },
  {
    "name": "西蒲区役所",
    "address": "新潟市西蒲区巻甲2690番地1",
    "comment": "市民ロビー",
    "latlng": {
      "lat": 37.7604638,
      "lng": 138.8892838
    }
  }
]
